[{"Airport": "BNE", "Latitude": -27.38419914245605, "Longitude": 153.11700439453125}, {"Airport": "TSN", "Latitude": 39.1244010925, "Longitude": 117.346000671}, {"Airport": "SAW", "Latitude": 40.898601532, "Longitude": 29.3092002869}, {"Airport": "BWI", "Latitude": 39.1754, "Longitude": -76.668297}, {"Airport": "DLC", "Latitude": 38.9656982421875, "Longitude": 121.53900146484376}, {"Airport": "SLC", "Latitude": 40.78839874267578, "Longitude": -111.97799682617188}, {"Airport": "RUH", "Latitude": 24.957599639892575, "Longitude": 46.69879913330078}, {"Airport": "TPA", "Latitude": 27.975500106811523, "Longitude": -82.533203125}, {"Airport": "LYS", "Latitude": 45.725556, "Longitude": 5.081111}, {"Airport": "KWE", "Latitude": 26.53849983215332, "Longitude": 106.8010025024414}, {"Airport": "STR", "Latitude": 48.6898994446, "Longitude": 9.22196006775}, {"Airport": "SHE", "Latitude": 41.63980102539063, "Longitude": 123.48300170898438}, {"Airport": "MDW", "Latitude": 41.785999, "Longitude": -87.752403}, {"Airport": "TLV", "Latitude": 32.01139831542969, "Longitude": 34.88669967651367}, {"Airport": "TNA", "Latitude": 36.857200622558594, "Longitude": 117.21600341796876}, {"Airport": "MEL", "Latitude": -37.673302, "Longitude": 144.843002}, {"Airport": "NCE", "Latitude": 43.6584014893, "Longitude": 7.215869903560001}, {"Airport": "FOC", "Latitude": 25.93510055541992, "Longitude": 119.66300201416016}, {"Airport": "MRS", "Latitude": 43.439271922, "Longitude": 5.22142410278}, {"Airport": "CGN", "Latitude": 50.8658981323, "Longitude": 7.1427397728}, {"Airport": "BHX", "Latitude": 52.4538993835, "Longitude": -1.74802994728}, {"Airport": "HRB", "Latitude": 45.6234016418457, "Longitude": 126.25}, {"Airport": "NBO", "Latitude": -1.31923997402, "Longitude": 36.9277992249}, {"Airport": "AYT", "Latitude": 36.898701, "Longitude": 30.800501}, {"Airport": "CMN", "Latitude": 33.36750030517578, "Longitude": -7.589970111846924}, {"Airport": "MSY", "Latitude": 29.99340057373047, "Longitude": -90.25800323486328}, {"Airport": "VCE", "Latitude": 45.505299, "Longitude": 12.3519}, {"Airport": "WAW", "Latitude": 52.1656990051, "Longitude": 20.9671001434}, {"Airport": "KWI", "Latitude": 29.226600646972656, "Longitude": 47.96889877319336}, {"Airport": "SAN", "Latitude": 32.7336006165, "Longitude": -117.190002441}, {"Airport": "EDI", "Latitude": 55.95000076293945, "Longitude": -3.372499942779541}, {"Airport": "CTA", "Latitude": 37.466801, "Longitude": 15.0664}, {"Airport": "HNL", "Latitude": 21.32062, "Longitude": -157.924228}, {"Airport": "ACE", "Latitude": 28.945499, "Longitude": -13.6052}, {"Airport": "LIM", "Latitude": -12.0219, "Longitude": -77.114305}, {"Airport": "PDX", "Latitude": 45.58869934, "Longitude": -122.5979996}, {"Airport": "YYC", "Latitude": 51.113899231, "Longitude": -114.019996643}, {"Airport": "NNG", "Latitude": 22.608299255371094, "Longitude": 108.1719970703125}, {"Airport": "OTP", "Latitude": 44.5711111, "Longitude": 26.085}, {"Airport": "MLA", "Latitude": 35.857498, "Longitude": 14.4775}, {"Airport": "AMM", "Latitude": 31.7226009369, "Longitude": 35.9931983948}, {"Airport": "STL", "Latitude": 38.748697, "Longitude": -90.370003}, {"Airport": "TYN", "Latitude": 37.74689865112305, "Longitude": 112.62799835205078}, {"Airport": "HER", "Latitude": 35.3396987915, "Longitude": 25.1802997589}, {"Airport": "SGN", "Latitude": 10.8187999725, "Longitude": 106.652000427}, {"Airport": "SYX", "Latitude": 18.30290031433105, "Longitude": 109.41200256347656}, {"Airport": "HAK", "Latitude": 19.93490028381348, "Longitude": 110.45899963378906}, {"Airport": "LTN", "Latitude": 51.874698638916016, "Longitude": -0.3683330118656158}, {"Airport": "ADD", "Latitude": 8.97789001465, "Longitude": 38.7993011475}, {"Airport": "KWL", "Latitude": 25.21809959411621, "Longitude": 110.03900146484376}, {"Airport": "AKL", "Latitude": -37.0080986023, "Longitude": 174.792007446}, {"Airport": "PTY", "Latitude": 9.0713596344, "Longitude": -79.3834991455}, {"Airport": "FAO", "Latitude": 37.0144004822, "Longitude": -7.96590995789}, {"Airport": "MAA", "Latitude": 12.990005493164062, "Longitude": 80.16929626464844}, {"Airport": "MCT", "Latitude": 23.593299865722656, "Longitude": 58.284400939941406}, {"Airport": "SJU", "Latitude": 18.4393997192, "Longitude": -66.0018005371}, {"Airport": "CMB", "Latitude": 7.180759906768799, "Longitude": 79.88410186767578}, {"Airport": "IBZ", "Latitude": 38.8728981018, "Longitude": 1.3731199502899998}, {"Airport": "RIX", "Latitude": 56.92359924316406, "Longitude": 23.971099853515625}, {"Airport": "OPO", "Latitude": 41.2481002808, "Longitude": -8.68138980865}, {"Airport": "KBP", "Latitude": 50.345001220703125, "Longitude": 30.894699096679688}, {"Airport": "DPS", "Latitude": -8.7481698989868, "Longitude": 115.16699981689}, {"Airport": "BRS", "Latitude": 51.382702, "Longitude": -2.71909}, {"Airport": "SVX", "Latitude": 56.743099212646, "Longitude": 60.802700042725}, {"Airport": "BSB", "Latitude": -15.86916732788086, "Longitude": -47.92083358764648}, {"Airport": "GLA", "Latitude": 55.8718986511, "Longitude": -4.43306016922}, {"Airport": "BLR", "Latitude": 13.1979, "Longitude": 77.706299}, {"Airport": "SHJ", "Latitude": 25.32859992980957, "Longitude": 55.5172004699707}, {"Airport": "BUD", "Latitude": 47.42976, "Longitude": 19.261093}, {"Airport": "GIG", "Latitude": -22.8099994659, "Longitude": -43.2505569458}, {"Airport": "CCU", "Latitude": 22.654699325561523, "Longitude": 88.44670104980469}, {"Airport": "FUE", "Latitude": 28.452699661254883, "Longitude": -13.863800048828123}, {"Airport": "EMA", "Latitude": 52.8311004639, "Longitude": -1.32806003094}, {"Airport": "LCA", "Latitude": 34.875099182128906, "Longitude": 33.624900817871094}, {"Airport": "BSL", "Latitude": 47.59, "Longitude": 7.5291667}, {"Airport": "GDL", "Latitude": 20.52179908752441, "Longitude": -103.31099700927734}, {"Airport": "NTE", "Latitude": 47.153198242200006, "Longitude": -1.61073005199}, {"Airport": "PER", "Latitude": -31.94029998779297, "Longitude": 115.96700286865234}, {"Airport": "CCS", "Latitude": 10.601194, "Longitude": -66.991222}, {"Airport": "OVB", "Latitude": 55.012599945068, "Longitude": 82.650703430176}, {"Airport": "BLQ", "Latitude": 44.5354, "Longitude": 11.2887}, {"Airport": "ALG", "Latitude": 36.69100189208984, "Longitude": 3.215409994125366}, {"Airport": "TUN", "Latitude": 36.85100173950195, "Longitude": 10.22719955444336}, {"Airport": "HAN", "Latitude": 21.221200942993164, "Longitude": 105.80699920654295}, {"Airport": "SKG", "Latitude": 40.51969909667969, "Longitude": 22.97089958190918}, {"Airport": "HET", "Latitude": 40.851398, "Longitude": 111.823997}, {"Airport": "KHN", "Latitude": 28.864999771118164, "Longitude": 115.9000015258789}, {"Airport": "VKO", "Latitude": 55.5914993286, "Longitude": 37.2615013123}, {"Airport": "BEG", "Latitude": 44.8184013367, "Longitude": 20.3090991974}, {"Airport": "FUK", "Latitude": 33.585899353027344, "Longitude": 130.4510040283203}, {"Airport": "BAH", "Latitude": 26.27079963684082, "Longitude": 50.63359832763672}, {"Airport": "NGO", "Latitude": 34.8583984375, "Longitude": 136.80499267578125}, {"Airport": "LHW", "Latitude": 36.5152015686, "Longitude": 103.620002747}, {"Airport": "RHO", "Latitude": 36.405399322509766, "Longitude": 28.086200714111328}, {"Airport": "NGB", "Latitude": 29.82670021057129, "Longitude": 121.46199798583984}, {"Airport": "CRL", "Latitude": 50.459202, "Longitude": 4.45382}, {"Airport": "RDU", "Latitude": 35.87760162353516, "Longitude": -78.7874984741211}, {"Airport": "AUS", "Latitude": 30.194499969482425, "Longitude": -97.6698989868164}, {"Airport": "SXF", "Latitude": 52.380001, "Longitude": 13.5225}, {"Airport": "NCL", "Latitude": 55.03749847412109, "Longitude": -1.6916699409484863}, {"Airport": "BNA", "Latitude": 36.1245002746582, "Longitude": -86.6781997680664}, {"Airport": "SJW", "Latitude": 38.28070068359375, "Longitude": 114.6969985961914}, {"Airport": "DMM", "Latitude": 26.471200942993164, "Longitude": 49.79790115356445}, {"Airport": "VLC", "Latitude": 39.4893, "Longitude": -0.481625}, {"Airport": "BGY", "Latitude": 45.673901, "Longitude": 9.70417}, {"Airport": "CTS", "Latitude": 42.77519989013672, "Longitude": 141.69200134277344}, {"Airport": "WNZ", "Latitude": 27.912201, "Longitude": 120.851997}, {"Airport": "TLS", "Latitude": 43.629101, "Longitude": 1.36382}, {"Airport": "CLE", "Latitude": 41.4117012024, "Longitude": -81.8498001099}, {"Airport": "LBA", "Latitude": 53.86589813232422, "Longitude": -1.6605700254440308}, {"Airport": "PUS", "Latitude": 35.1795005798, "Longitude": 128.93800354}, {"Airport": "NAY", "Latitude": 39.78279876708984, "Longitude": 116.38800048828124}, {"Airport": "TAS", "Latitude": 41.257900238, "Longitude": 69.2811965942}, {"Airport": "MCI", "Latitude": 39.2976, "Longitude": -94.713898}, {"Airport": "SCL", "Latitude": -33.393001556396484, "Longitude": -70.78579711914062}, {"Airport": "NAP", "Latitude": 40.886002, "Longitude": 14.2908}, {"Airport": "MFM", "Latitude": 22.149599, "Longitude": 113.592003}, {"Airport": "HFE", "Latitude": 31.780000686645508, "Longitude": 117.2979965209961}, {"Airport": "PSA", "Latitude": 43.683899, "Longitude": 10.3927}, {"Airport": "HAJ", "Latitude": 52.461101532, "Longitude": 9.68507957458}, {"Airport": "CVG", "Latitude": 39.0488014221, "Longitude": -84.6678009033}, {"Airport": "HOU", "Latitude": 29.64539909, "Longitude": -95.27890015}, {"Airport": "EZE", "Latitude": -34.8222, "Longitude": -58.5358}, {"Airport": "SJO", "Latitude": 9.993860244750977, "Longitude": -84.20880126953125}, {"Airport": "DAC", "Latitude": 23.843347, "Longitude": 90.397783}, {"Airport": "PIT", "Latitude": 40.49150085, "Longitude": -80.23290253}, {"Airport": "HYD", "Latitude": 17.2313175201, "Longitude": 78.4298553467}, {"Airport": "MTY", "Latitude": 25.7784996033, "Longitude": -100.107002258}, {"Airport": "RAK", "Latitude": 31.6068992615, "Longitude": -8.03629970551}, {"Airport": "PUJ", "Latitude": 18.5673999786, "Longitude": -68.36340332030001}]