[{"Airport": "KUL", "Latitude": 2.745579957962, "Longitude": 101.70999908447}, {"Airport": "PHX", "Latitude": 33.43429946899414, "Longitude": -112.01200103759766}, {"Airport": "HGH", "Latitude": 30.22949981689453, "Longitude": 120.43399810791016}, {"Airport": "EWR", "Latitude": 40.692501068115234, "Longitude": -74.168701171875}, {"Airport": "SFO", "Latitude": 37.61899948120117, "Longitude": -122.375}, {"Airport": "LAS", "Latitude": 36.08010101, "Longitude": -115.1520004}, {"Airport": "ZRH", "Latitude": 47.464699, "Longitude": 8.54917}, {"Airport": "MEX", "Latitude": 19.4363, "Longitude": -99.072098}, {"Airport": "IAH", "Latitude": 29.984399795532227, "Longitude": -95.34140014648438}, {"Airport": "AUH", "Latitude": 24.433000564575195, "Longitude": 54.651100158691406}, {"Airport": "MCO", "Latitude": 28.429399490356445, "Longitude": -81.30899810791016}, {"Airport": "SZX", "Latitude": 22.639299392700195, "Longitude": 113.81099700927734}, {"Airport": "XMN", "Latitude": 24.54400062561035, "Longitude": 118.12799835205078}, {"Airport": "CPH", "Latitude": 55.617900848389, "Longitude": 12.656000137329}, {"Airport": "BOM", "Latitude": 19.0886993408, "Longitude": 72.8678970337}, {"Airport": "ARN", "Latitude": 59.651901245117, "Longitude": 17.918600082397}, {"Airport": "LIS", "Latitude": 38.7813, "Longitude": -9.13592}, {"Airport": "DTW", "Latitude": 42.212398529052734, "Longitude": -83.35340118408203}, {"Airport": "MSP", "Latitude": 44.882, "Longitude": -93.221802}, {"Airport": "BOS", "Latitude": 42.36429977, "Longitude": -71.00520325}, {"Airport": "TXL", "Latitude": 52.5597, "Longitude": 13.2877}, {"Airport": "DUB", "Latitude": 53.421299, "Longitude": -6.27007}, {"Airport": "SHA", "Latitude": 31.197900772094727, "Longitude": 121.33599853515624}, {"Airport": "SYD", "Latitude": -33.94609832763672, "Longitude": 151.177001953125}, {"Airport": "AGP", "Latitude": 36.67490005493164, "Longitude": -4.499110221862793}, {"Airport": "ORY", "Latitude": 48.7233333, "Longitude": 2.3794444}, {"Airport": "SEA", "Latitude": 47.449001, "Longitude": -122.308998}, {"Airport": "ATH", "Latitude": 37.9364013672, "Longitude": 23.9444999695}, {"Airport": "SVO", "Latitude": 55.972599, "Longitude": 37.4146}, {"Airport": "DCA", "Latitude": 38.8521, "Longitude": -77.037697}, {"Airport": "GRU", "Latitude": -23.435556411743164, "Longitude": -46.47305679321289}, {"Airport": "IAD", "Latitude": 38.94449997, "Longitude": -77.45580292}, {"Airport": "MNL", "Latitude": 14.5086, "Longitude": 121.019997}, {"Airport": "MXP", "Latitude": 45.6306, "Longitude": 8.72811}, {"Airport": "CSX", "Latitude": 28.1891994476, "Longitude": 113.220001221}, {"Airport": "DOH", "Latitude": 25.273056, "Longitude": 51.608056}, {"Airport": "JED", "Latitude": 21.6796, "Longitude": 39.156502}, {"Airport": "TAO", "Latitude": 36.2661018372, "Longitude": 120.374000549}, {"Airport": "WUH", "Latitude": 30.7838, "Longitude": 114.208}, {"Airport": "FLL", "Latitude": 26.072599, "Longitude": -80.152702}, {"Airport": "YUL", "Latitude": 45.4706001282, "Longitude": -73.7407989502}, {"Airport": "LED", "Latitude": 59.80030059814453, "Longitude": 30.262500762939453}, {"Airport": "CGK", "Latitude": -6.1255698204, "Longitude": 106.65599823}, {"Airport": "OSL", "Latitude": 60.121, "Longitude": 11.0502}, {"Airport": "PRG", "Latitude": 50.1008, "Longitude": 14.26}, {"Airport": "CGO", "Latitude": 34.519699096699995, "Longitude": 113.841003418}, {"Airport": "STN", "Latitude": 51.8849983215, "Longitude": 0.234999999404}, {"Airport": "NKG", "Latitude": 31.742000579833984, "Longitude": 118.86199951171876}, {"Airport": "GVA", "Latitude": 46.23809814453125, "Longitude": 6.108950138092041}, {"Airport": "HAM", "Latitude": 53.630401611328, "Longitude": 9.9882297515869}, {"Airport": "JNB", "Latitude": -26.1392, "Longitude": 28.246}, {"Airport": "HEL", "Latitude": 60.317199707031, "Longitude": 24.963300704956}, {"Airport": "TFS", "Latitude": 28.044500351, "Longitude": -16.5725002289}, {"Airport": "LGA", "Latitude": 40.77719879, "Longitude": -73.87259674}, {"Airport": "YVR", "Latitude": 49.193901062, "Longitude": -123.183998108}, {"Airport": "HND", "Latitude": 35.552299, "Longitude": 139.779999}, {"Airport": "ALC", "Latitude": 38.28219985961914, "Longitude": -0.5581560134887695}, {"Airport": "CUN", "Latitude": 21.036500930800003, "Longitude": -86.8770980835}, {"Airport": "LPA", "Latitude": 27.931900024414062, "Longitude": -15.38659954071045}, {"Airport": "BOG", "Latitude": 4.70159, "Longitude": -74.1469}, {"Airport": "URC", "Latitude": 43.90710067749024, "Longitude": 87.47419738769531}, {"Airport": "KIX", "Latitude": 34.42729949951172, "Longitude": 135.24400329589844}, {"Airport": "CAI", "Latitude": 30.12190055847168, "Longitude": 31.40559959411621}]